City_ID,City,Lat,Lng,Max Temp,Humidity,Cloudiness,Wind Speed,Country,Date
0,avarua,-21.2078,-159.775,27.03,74,100,7.72,CK,1669254841
1,alegrete,-29.7831,-55.7919,16.45,54,0,2.9,BR,1669254842
2,atuona,-9.8,-139.0333,25.45,77,12,6.2,PF,1669254702
3,fountain hills,33.6117,-111.7174,17.38,31,11,1.34,US,1669254843
4,busselton,-33.65,115.3333,18.79,55,100,4.33,AU,1669254843
5,whitehorse,60.7161,-135.0538,-1.22,97,100,1.03,CA,1669254570
6,new norfolk,-42.7826,147.0587,17.18,57,100,2.24,AU,1669254844
7,rikitea,-23.1203,-134.9692,21.74,87,99,3.48,PF,1669254845
8,albany,42.6001,-73.9662,3.82,74,10,1.62,US,1669254796
9,port macquarie,-31.4333,152.9167,25.5,51,2,5.34,AU,1669254846
10,sept-iles,50.2001,-66.3821,-7.0,61,0,8.23,CA,1669254847
11,zhigansk,66.7697,123.3711,-40.3,100,62,1.06,RU,1669254847
12,mataura,-46.1927,168.8643,14.15,39,36,5.54,NZ,1669254848
13,hermanus,-34.4187,19.2345,15.45,80,100,6.91,ZA,1669254605
14,den helder,52.9599,4.7593,9.99,91,75,9.26,NL,1669254772
15,cape town,-33.9258,18.4232,15.49,90,75,4.63,ZA,1669254791
16,san cristobal,7.7669,-72.225,21.1,98,89,0.69,VE,1669254567
17,xiongzhou,25.1167,114.3,17.4,88,99,1.2,CN,1669254851
18,georgetown,5.4112,100.3354,27.75,94,40,2.24,MY,1669254851
19,hamilton,39.1834,-84.5333,8.73,60,89,0.89,US,1669254852
20,bredasdorp,-34.5322,20.0403,16.16,78,100,4.75,ZA,1669254852
21,skibbereen,51.55,-9.2667,11.73,84,97,9.47,IE,1669254854
22,bluff,-46.6,168.3333,14.33,67,29,9.81,NZ,1669254854
23,verkhovye,52.8119,37.2425,-4.18,97,16,2.3,RU,1669254855
24,bubaque,11.2833,-15.8333,27.88,64,97,2.55,GW,1669254856
25,vaini,-21.2,-175.2,29.09,74,20,2.57,TO,1669254856
26,punta arenas,-53.15,-70.9167,4.06,87,40,8.75,CL,1669254557
27,beloha,-25.1667,45.05,21.94,80,1,3.87,MG,1669254857
28,carnarvon,-24.8667,113.6333,23.98,54,0,4.11,AU,1669254859
29,tarakan,3.3,117.6333,26.72,89,20,2.06,ID,1669254860
30,longyearbyen,78.2186,15.6401,-2.89,91,100,2.92,SJ,1669254860
31,biskupiec,53.8647,20.9569,-3.1,88,100,2.15,PL,1669254861
32,daru,-9.0763,143.2092,30.48,63,100,1.68,PG,1669254862
33,lakhnadon,22.6,79.6,14.46,54,22,1.51,IN,1669254862
34,ushuaia,-54.8,-68.3,4.81,70,40,6.17,AR,1669254692
35,butaritari,3.0707,172.7902,27.13,70,12,1.83,KI,1669254863
36,sao joao da barra,-21.6403,-41.0511,23.61,88,100,6.56,BR,1669254864
37,saint anthony,45.0205,-93.218,3.96,80,100,2.57,US,1669254865
38,saskylakh,71.9167,114.0833,-37.66,100,96,1.05,RU,1669254865
39,nikolskoye,59.7035,30.7861,-5.05,90,35,2.17,RU,1669254866
40,port pirie,-33.1833,138.0167,24.22,33,100,3.44,AU,1669254867
41,vila velha,-20.3297,-40.2925,23.97,92,40,3.09,BR,1669254867
42,namatanai,-3.6667,152.4333,30.21,58,69,2.17,PG,1669254868
43,kloulklubed,7.0419,134.2556,27.28,74,24,4.45,PW,1669254869
44,ramhormoz,31.28,49.6035,19.46,58,67,0.73,IR,1669254870
45,cangucu,-31.395,-52.6756,12.56,90,0,1.48,BR,1669254870
46,verkhnyaya inta,65.9811,60.3094,-17.59,97,88,3.29,RU,1669254871
47,saint-philippe,-21.3585,55.7679,22.77,82,38,4.11,RE,1669254871
48,qasigiannguit,68.8193,-51.1922,-14.77,90,49,2.22,GL,1669254872
49,lukovetskiy,64.2956,41.9211,-12.03,96,8,1.37,RU,1669254872
50,vardo,70.3705,31.1107,-6.01,86,44,9.77,NO,1669254873
51,magnolia,33.2671,-93.2393,11.6,66,100,2.34,US,1669254720
52,milkovo,54.7167,158.6167,-2.72,72,33,4.15,RU,1669254874
53,geraldton,-28.7667,114.6,23.23,53,40,3.6,AU,1669254875
54,anadyr,64.75,177.4833,-4.72,92,100,21.0,RU,1669254876
55,lebu,-37.6167,-73.65,13.96,92,29,6.93,CL,1669254876
56,hobart,-42.8794,147.3294,17.37,62,75,6.17,AU,1669254766
57,mar del plata,-38.0023,-57.5575,18.01,73,0,1.54,AR,1669254825
58,port blair,11.6667,92.75,25.02,94,40,0.0,IN,1669254878
59,nouadhibou,20.931,-17.0347,18.99,82,0,5.66,MR,1669254879
60,ribeira grande,38.5167,-28.7,15.43,77,64,1.34,PT,1669254879
61,upernavik,72.7868,-56.1549,-5.51,87,100,2.37,GL,1669254880
62,fare,-16.7,-151.0167,26.22,76,100,3.12,PF,1669254881
63,hashtgerd,35.9642,50.6858,6.91,32,0,0.92,IR,1669254881
64,nishihara,26.1842,127.7558,22.6,92,100,5.66,JP,1669254882
65,camas,37.402,-6.0331,17.28,89,50,1.79,ES,1669254883
66,tuktoyaktuk,69.4541,-133.0374,-12.0,92,100,4.12,CA,1669254883
67,bethel,41.3712,-73.414,6.08,69,0,0.0,US,1669254664
68,hambantota,6.1241,81.1185,22.19,100,20,0.51,LK,1669254884
69,faanui,-16.4833,-151.75,26.45,74,99,2.44,PF,1669254885
70,la paz,-16.5,-68.15,9.99,66,75,4.12,BO,1669254885
71,dikson,73.5069,80.5464,-29.74,98,93,5.97,RU,1669254886
72,pisco,-13.7,-76.2167,19.03,88,0,5.66,PE,1669254887
73,yellowknife,62.456,-114.3525,-6.71,86,100,2.57,CA,1669254768
74,coolum beach,-26.5333,153.1,26.71,48,100,3.88,AU,1669254638
75,tecoanapa,16.5167,-98.75,25.85,78,94,2.23,MX,1669254888
76,souillac,-20.5167,57.5167,24.21,83,40,3.09,MU,1669254889
77,labuhan,-6.8844,112.2051,28.42,73,100,2.67,ID,1669254889
78,rossland,49.0831,-117.8022,-2.43,44,94,0.36,CA,1669254890
79,hithadhoo,-0.6,73.0833,27.63,74,25,6.03,MV,1669254891
80,padang,-0.9492,100.3543,24.03,76,97,1.28,ID,1669254778
81,kulu,39.0951,33.0799,10.23,66,100,8.17,TR,1669254892
82,sokoni,-6.4333,39.55,26.47,79,64,4.34,TZ,1669254893
83,menongue,-14.6585,17.691,16.89,91,100,1.63,AO,1669254606
84,alpena,45.0617,-83.4327,2.14,99,1,2.76,US,1669254894
85,timizart,36.8,4.2667,16.12,72,71,2.81,DZ,1669254894
86,isangel,-19.55,169.2667,31.06,74,34,3.6,VU,1669254768
87,sindor,62.8629,51.8905,-20.26,99,65,1.57,RU,1669254895
88,tasiilaq,65.6145,-37.6368,-6.2,67,80,3.96,GL,1669254896
89,nadadores,27.05,-101.6,15.13,76,40,2.02,MX,1669254897
90,gushikawa,26.3544,127.8686,22.57,96,75,4.12,JP,1669254897
91,kaitangata,-46.2817,169.8464,14.55,45,87,6.02,NZ,1669254898
92,klaksvik,62.2266,-6.589,8.51,90,100,16.07,FO,1669254898
93,puerto ayora,-0.7393,-90.3518,20.31,97,58,1.34,EC,1669254651
94,blackwater,-23.5833,148.8833,29.2,19,95,3.62,AU,1669254899
95,pevek,69.7008,170.3133,-31.9,96,100,0.45,RU,1669254900
96,saint-francois,46.4154,3.9054,6.69,81,100,2.57,FR,1669254900
97,qaanaaq,77.484,-69.3632,-11.59,89,87,1.03,GL,1669254901
98,east london,-33.0153,27.9116,19.72,78,77,8.32,ZA,1669254808
99,caravelas,-17.7125,-39.2481,23.04,90,100,2.36,BR,1669254903
100,kimbe,-5.5502,150.1429,32.5,53,5,3.35,PG,1669254903
101,cidreira,-30.1811,-50.2056,18.57,76,7,1.97,BR,1669254904
102,coihueco,-36.6167,-71.8333,22.41,53,0,5.66,CL,1669254905
103,talaya,61.3833,152.75,-25.47,93,100,2.45,RU,1669254905
104,maumere,-8.6199,122.2111,29.02,63,98,1.02,ID,1669254906
105,balaipungut,1.05,101.2833,28.09,68,76,1.49,ID,1669254907
106,bangolo,7.0069,-7.475,22.14,75,88,0.56,CI,1669254907
107,cherskiy,68.75,161.3,-34.35,98,99,1.24,RU,1669254908
108,kavieng,-2.5744,150.7967,29.88,59,90,4.0,PG,1669254909
109,sao filipe,14.8961,-24.4956,25.11,65,100,4.51,CV,1669254909
110,hasaki,35.7333,140.8333,19.05,58,2,10.67,JP,1669254910
111,mount gambier,-37.8333,140.7667,17.03,51,60,3.04,AU,1669254879
112,grand gaube,-20.0064,57.6608,24.22,77,40,1.34,MU,1669254911
113,langsa,4.4683,97.9683,27.0,79,93,0.34,ID,1669254912
114,suntar,62.1444,117.6319,-35.21,99,82,0.38,RU,1669254912
115,port elizabeth,-33.918,25.5701,18.39,80,20,2.06,ZA,1669254913
116,katsuura,35.1333,140.3,17.52,58,6,7.18,JP,1669254914
117,castro,-24.7911,-50.0119,16.83,89,7,0.81,BR,1669254837
118,karagaylinskiy,54.172,86.5521,-21.65,94,75,2.87,RU,1669254915
119,bowmore,34.9421,-79.3031,13.27,66,1,2.87,US,1669254916
120,nichinan,31.6,131.3667,15.82,65,48,1.62,JP,1669254916
121,sitka,57.0531,-135.33,8.94,76,100,9.77,US,1669254796
122,laguna de duero,41.5815,-4.7233,7.19,90,40,3.09,ES,1669254917
123,vestmannaeyjar,63.4427,-20.2734,6.46,64,100,8.58,IS,1669254872
124,port alfred,-33.5906,26.891,18.99,83,47,1.34,ZA,1669254919
125,tari,12.4086,4.4914,20.87,18,1,4.57,NG,1669254920
126,cabo san lucas,22.8909,-109.9124,24.17,64,59,2.46,MX,1669254920
127,marabba,12.35,32.1833,24.42,30,1,3.89,SD,1669254921
128,colares,38.7992,-9.4469,17.96,94,55,2.24,PT,1669254922
129,clyde river,70.4692,-68.5914,-19.87,65,100,1.03,CA,1669254923
130,srednekolymsk,67.45,153.6833,-31.71,99,100,1.77,RU,1669254923
131,lorengau,-2.0226,147.2712,30.17,63,97,4.65,PG,1669254924
132,lazaro cardenas,17.9583,-102.2,25.69,81,54,1.48,MX,1669254925
133,suifenhe,44.4,131.1667,-2.88,73,77,1.15,CN,1669254925
134,haines junction,60.7522,-137.5108,-3.03,93,100,0.0,CA,1669254926
135,barrow,71.2906,-156.7887,-12.99,78,100,4.63,US,1669254927
136,kendari,-3.945,122.4989,30.85,65,97,1.0,ID,1669254927
137,bengkulu,-3.8004,102.2655,25.69,80,100,1.38,ID,1669254928
138,athabasca,54.7169,-113.2854,-3.77,81,75,3.06,CA,1669254929
139,tateyama,34.9833,139.8667,18.45,55,33,8.74,JP,1669254929
140,luderitz,-26.6481,15.1594,15.25,80,0,5.23,NA,1669254796
141,thompson,55.7435,-97.8558,-5.91,100,40,3.6,CA,1669254931
142,alta floresta,-9.8756,-56.0861,21.48,97,100,1.29,BR,1669254931
143,romitan,39.9343,64.3814,8.97,57,0,3.09,UZ,1669254932
144,betma,22.6833,75.6167,12.12,66,15,3.09,IN,1669254933
145,jinchang,38.4953,102.1739,5.24,25,3,1.72,CN,1669254933
146,tooele,40.5308,-112.2983,2.87,81,26,2.52,US,1669254777
147,ketchikan,55.3422,-131.6461,8.92,93,100,9.92,US,1669254835
148,biak,-0.9131,122.8766,28.44,66,100,0.68,ID,1669254935
149,chuy,-33.6971,-53.4616,15.42,71,5,2.88,UY,1669254936
150,deputatskiy,69.3,139.9,-35.17,99,92,1.4,RU,1669254936
151,hobyo,5.3505,48.5268,25.68,74,3,4.18,SO,1669254937
152,aleksandrov gay,50.147,48.5704,3.03,83,100,7.5,RU,1669254938
153,saldanha,-33.0117,17.9442,16.03,84,87,3.53,ZA,1669254847
154,tiksi,71.6872,128.8694,-32.84,100,100,1.62,RU,1669254939
155,ola,59.5833,151.2833,-18.81,79,53,4.39,RU,1669254940
156,nome,64.5011,-165.4064,-5.96,86,100,0.0,US,1669254387
157,ulladulla,-35.35,150.4667,19.27,62,20,4.28,AU,1669254941
158,hervey bay,-25.2986,152.8535,27.79,39,96,5.81,AU,1669254941
159,shahrud,36.4182,54.9763,7.17,36,100,0.3,IR,1669254942
160,conde,-7.2597,-34.9075,24.7,83,40,1.54,BR,1669254942
161,moa,20.6569,-74.9403,25.79,86,100,4.45,CU,1669254943
162,trofors,65.5333,13.4063,-5.07,87,17,3.21,NO,1669254944
163,gitarama,-2.0744,29.7567,15.7,94,80,0.88,RW,1669254944
164,misratah,32.3754,15.0925,18.34,48,0,6.31,LY,1669254945
165,vostok,46.4856,135.8833,-4.8,60,5,1.22,RU,1669254945
166,corinto,37.9407,22.9573,12.72,71,1,3.06,GR,1669254946
167,baykit,61.67,96.37,-23.43,98,100,1.1,RU,1669254947
168,douglas,41.3,-96.167,9.81,78,0,3.6,US,1669254662
169,ust-ordynskiy,52.805,104.7508,-10.62,56,100,6.28,RU,1669254948
170,port-cartier,50.0334,-66.8654,-7.18,71,3,7.68,CA,1669254948
171,sinjai,-5.1241,120.253,30.29,65,76,1.8,ID,1669254949
172,guanica,17.9716,-66.908,25.66,90,0,3.1,PR,1669254949
173,coquimbo,-29.9533,-71.3436,14.85,88,20,2.57,CL,1669254950
174,luanda,-8.8368,13.2343,26.0,89,40,3.09,AO,1669254951
175,tsogni,-2.7942,10.0988,24.49,88,69,2.13,GA,1669254951
176,provideniya,64.3833,-173.3,-6.94,73,100,4.02,RU,1669254952
177,touros,-5.1989,-35.4608,25.64,75,10,5.02,BR,1669254689
178,arraial do cabo,-22.9661,-42.0278,23.12,91,100,10.65,BR,1669254944
179,constitucion,-35.3333,-72.4167,14.79,86,22,7.14,CL,1669254881
180,esperance,-33.8667,121.9,23.59,57,59,7.45,AU,1669254954
181,hearst,49.6835,-83.6665,0.14,95,100,2.88,CA,1669254782
182,nanortalik,60.1432,-45.2371,-0.52,73,99,4.2,GL,1669254876
183,sibolga,1.7427,98.7792,26.39,81,73,0.81,ID,1669254955
184,san patricio,28.017,-97.5169,20.92,96,95,3.72,US,1669254956
185,nova ushytsya,48.8372,27.2743,2.54,100,100,2.52,UA,1669254956
186,becsehely,46.4476,16.7771,4.64,97,100,1.82,HU,1669254957
187,robertsport,6.7533,-11.3686,26.44,79,100,0.29,LR,1669254957
188,aloleng,16.1307,119.7824,29.37,71,85,1.5,PH,1669254958
189,corby,52.4964,-0.6894,6.78,87,40,6.17,GB,1669254958
190,hami,42.8,93.45,1.12,51,99,2.3,CN,1669254959
191,kodiak,57.79,-152.4072,0.73,86,100,8.23,US,1669254878
192,tabou,4.423,-7.3528,25.55,85,27,2.25,CI,1669254960
193,ancud,-41.8697,-73.8203,10.06,90,54,2.35,CL,1669254961
194,port hardy,50.6996,-127.4199,8.1,87,75,8.75,CA,1669254962
195,romilly-sur-seine,48.5108,3.7263,8.57,89,100,6.28,FR,1669254963
196,ixtapa,20.7,-105.2,24.57,80,100,0.8,MX,1669254963
197,victor harbor,-35.5667,138.6167,21.49,65,68,3.3,AU,1669254964
198,ponta delgada,37.7333,-25.6667,17.4,72,40,4.63,PT,1669254811
199,guilin,25.2819,110.2864,17.06,76,96,3.73,CN,1669254965
200,ballina,-28.8667,153.5667,27.79,62,100,3.63,AU,1669254966
201,khash,28.2211,61.2158,9.13,14,80,1.0,IR,1669254966
202,bathsheba,13.2167,-59.5167,26.34,83,75,9.77,BB,1669254967
203,pacific grove,36.6177,-121.9166,15.3,81,95,4.92,US,1669254968
204,samarai,-10.6167,150.6667,30.04,67,0,6.08,PG,1669254968
205,valparaiso,-33.0393,-71.6273,16.93,100,75,3.09,CL,1669254692
206,dingle,10.9995,122.6711,29.31,75,75,4.83,PH,1669254969
207,korla,41.7597,86.1469,2.25,39,0,2.37,CN,1669254970
208,storslett,69.7678,21.0247,-6.0,63,43,7.2,NO,1669254971
209,skovorodino,53.9833,123.9167,-15.52,86,100,1.28,RU,1669254972
210,porto novo,6.4965,2.6036,26.9,85,21,0.9,BJ,1669254972
211,ballater,57.0493,-3.0402,6.83,85,94,4.21,GB,1669254973
212,progreso,21.2833,-89.6667,26.17,85,37,3.18,MX,1669254974
213,charlestown,-32.95,151.6667,27.23,56,0,2.68,AU,1669254974
214,la ronge,55.1001,-105.2842,1.14,64,0,3.09,CA,1669254975
215,saint-joseph,-21.3667,55.6167,25.26,81,18,3.56,RE,1669254976
216,san quintin,30.4833,-115.95,15.57,66,0,3.49,MX,1669254976
217,karsava,56.7841,27.6883,-6.64,97,97,1.37,LV,1669254977
218,saint george,37.1041,-113.5841,11.25,33,59,0.89,US,1669254978
219,baghdad,33.3406,44.4009,15.95,67,52,1.03,IQ,1669254978
220,burhaniye,39.5004,26.9727,11.95,100,75,2.57,TR,1669254979
221,karaton,-6.3424,106.1045,26.83,79,95,3.18,ID,1669254980
222,ambon,-3.6954,128.1814,30.08,74,20,2.57,ID,1669254980
223,kapaa,22.0752,-159.319,26.99,74,12,1.34,US,1669254981
224,torbay,47.6666,-52.7314,0.98,90,100,7.2,CA,1669254981
225,torquay,50.4638,-3.5143,9.36,85,1,3.13,GB,1669254982
226,orange cove,36.6244,-119.3137,13.67,62,0,0.0,US,1669254983
227,lillooet,50.6856,-121.942,3.56,94,100,2.4,CA,1669254983
228,phalombe,-15.8064,35.6507,19.22,90,93,0.86,MW,1669254984
229,victoria,22.2855,114.1577,23.31,91,100,7.15,HK,1669254985
230,dalmatovo,56.26,62.9362,-10.55,89,100,5.11,RU,1669254985
231,atherton,53.5237,-2.4935,8.01,90,27,0.89,GB,1669254986
232,mahebourg,-20.4081,57.7,24.16,83,40,3.09,MU,1669254987
233,kannangad,12.3081,75.1063,24.43,87,96,1.67,IN,1669254987
234,baherden,38.4362,57.4316,14.17,47,100,1.02,TM,1669254988
235,alofi,-19.0595,-169.9187,28.94,61,75,5.14,NU,1669254988
236,cedar city,37.6775,-113.0619,1.89,47,3,3.82,US,1669254989
237,biloela,-24.4167,150.5,24.54,30,100,1.82,AU,1669254990
238,demak,-6.8909,110.6396,28.98,74,100,3.54,ID,1669254990
239,sarandi,-23.4436,-51.8739,22.75,78,0,3.6,BR,1669254991
240,caceres,39.522,-6.3748,11.28,95,47,1.15,ES,1669254991
241,olafsvik,64.8945,-23.7142,3.56,84,100,17.68,IS,1669254992
242,khatanga,71.9667,102.5,-40.45,100,57,1.28,RU,1669254993
243,barranca,-10.75,-77.7667,18.71,85,17,2.53,PE,1669254993
244,usinsk,65.9939,57.5281,-18.34,100,93,2.95,RU,1669254994
245,kenai,60.5544,-151.2583,-1.03,95,0,0.0,US,1669254994
246,dunedin,-45.8742,170.5036,13.22,67,79,4.92,NZ,1669254924
247,tyukhtet,56.5389,89.3011,-21.58,91,100,5.03,RU,1669254995
248,lata,40.1629,-8.3327,13.93,91,100,1.94,PT,1669254996
249,mokrousovo,55.8103,66.7653,-12.24,82,100,3.89,RU,1669254997
250,karratha,-20.7377,116.8463,30.69,38,84,3.34,AU,1669254997
251,ko samui,9.5357,99.9357,26.95,83,20,2.57,TH,1669254998
252,pangnirtung,66.1451,-65.7125,-18.73,65,10,2.74,CA,1669254998
253,mabaruma,8.2,-59.7833,23.22,98,100,1.36,GY,1669254999
254,pimentel,-6.8367,-79.9342,18.42,84,5,4.98,PE,1669255000
255,urubicha,-15.3833,-62.95,24.11,62,32,0.76,BO,1669255000
256,kasongo-lunda,-6.4667,16.8167,19.69,98,91,0.16,CD,1669255001
257,ponta do sol,32.6667,-17.1,19.45,68,33,2.51,PT,1669255001
258,codrington,-38.2667,141.9667,14.61,68,99,3.67,AU,1669255002
259,dwarka,22.2394,68.9678,24.15,47,6,3.25,IN,1669255003
260,kahului,20.8947,-156.47,26.02,76,63,4.02,US,1669255003
261,fortuna,40.5982,-124.1573,9.99,89,0,0.0,US,1669255004
262,ellensburg,46.9965,-120.5479,4.04,79,0,0.45,US,1669254773
263,sangar,63.9242,127.4739,-30.24,97,96,0.36,RU,1669255005
264,mitchell,43.7094,-98.0298,3.39,65,98,2.24,US,1669255005
265,kudahuvadhoo,2.6708,72.8944,27.49,74,98,6.58,MV,1669255006
266,sakhnovshchyna,49.1517,35.872,0.74,80,100,3.5,UA,1669255006
267,benjamin hill,30.1667,-111.1,15.55,28,0,3.5,MX,1669255007
268,chicama,-7.8447,-79.1469,17.3,80,5,2.19,PE,1669255008
269,aden,12.7794,45.0367,26.09,72,0,7.88,YE,1669254805
270,comodoro rivadavia,-45.8667,-67.5,17.92,29,0,15.43,AR,1669254814
271,bambous virieux,-20.3428,57.7575,24.14,83,40,3.09,MU,1669255009
272,uglich,57.5275,38.3317,-6.24,95,100,2.67,RU,1669255010
273,fukue,32.6881,128.8419,17.2,67,40,3.6,JP,1669255010
274,victoria point,-27.5833,153.3,31.2,52,92,0.89,AU,1669255011
275,chokurdakh,70.6333,147.9167,-34.43,100,69,2.12,RU,1669255012
276,ostrovnoy,68.0531,39.5131,-4.72,84,94,2.69,RU,1669255012
277,wattegama,6.7989,81.4808,24.77,82,99,0.45,LK,1669255013
278,visnes,59.3556,5.2242,9.01,57,40,11.32,NO,1669255013
279,porvoo,60.3923,25.6651,-4.87,93,100,3.96,FI,1669255014
280,te anau,-45.4167,167.7167,12.29,60,72,3.0,NZ,1669255015
281,marawi,7.9986,124.2928,27.04,65,66,1.48,PH,1669255015
282,kassala,15.451,36.4,24.97,31,0,3.2,SD,1669255016
283,kibaya,-5.3,36.5667,14.42,97,78,1.3,TZ,1669255016
284,develi,38.3906,35.4922,1.64,85,61,3.45,TR,1669255018
285,naron,43.5167,-8.1528,13.34,83,73,6.18,ES,1669255018
286,salinas,36.6777,-121.6555,16.45,61,89,1.33,US,1669254869
287,jamestown,42.097,-79.2353,4.8,54,0,1.54,US,1669254820
288,oromocto,45.8351,-66.4792,-4.92,51,0,6.17,CA,1669255019
289,vilyuysk,63.7553,121.6247,-35.46,100,97,0.61,RU,1669255020
290,tongliao,43.6125,122.2653,0.85,50,77,2.36,CN,1669255021
291,pangai,-19.8,-174.35,29.06,61,20,4.12,TO,1669255021
292,awjilah,29.1081,21.2869,14.66,63,4,4.1,LY,1669254938
293,kijang,35.2442,129.2139,12.85,31,100,0.87,KR,1669255022
294,ust-omchug,61.15,149.6333,-22.02,94,100,2.88,RU,1669255024
295,edson,53.5835,-116.4356,1.08,60,40,0.0,CA,1669255024
296,noshiro,40.2039,140.0242,10.46,69,38,1.46,JP,1669254961
297,key west,24.5557,-81.7826,29.0,93,40,4.63,US,1669255026
298,porto tolle,44.9497,12.3245,9.09,75,67,3.29,IT,1669255026
299,autazes,-3.5797,-59.1306,24.24,89,96,0.72,BR,1669255027
300,ust-koksa,50.2696,85.6108,-22.28,94,67,0.58,RU,1669255028
301,ndungu,-4.3667,38.05,20.26,94,62,1.41,TZ,1669255029
302,gorontalo,0.5412,123.0595,31.89,58,51,0.76,ID,1669255030
303,panalingaan,8.7842,117.4231,28.58,71,100,0.8,PH,1669255030
304,fort beaufort,-32.7748,26.6338,16.85,84,95,0.46,ZA,1669255031
305,chernyshevskiy,63.0128,112.4714,-32.27,99,100,0.88,RU,1669255032
306,northam,51.0333,-4.2167,10.14,76,6,10.15,GB,1669255032
307,maniitsoq,65.4167,-52.9,-1.81,56,92,2.78,GL,1669254948
308,aldan,58.6031,125.3894,-20.29,97,100,0.73,RU,1669255033
309,miri,4.4148,114.0089,24.08,94,40,1.03,MY,1669255034
310,roald,62.5833,6.1333,7.51,53,100,7.72,NO,1669255035
311,maceio,-9.6658,-35.7353,22.69,94,0,1.54,BR,1669255035
312,shache,38.4167,77.2406,8.65,18,8,2.24,CN,1669255036
313,auki,-8.7676,160.7034,30.75,60,56,1.4,SB,1669255037
314,kathmandu,27.7167,85.3167,10.12,93,20,1.54,NP,1669254425
315,sulangan,11.1373,123.7228,28.14,78,40,4.49,PH,1669255038
316,acapulco,16.8634,-99.8901,25.83,83,97,1.88,MX,1669254851
317,los llanos de aridane,28.6585,-17.9182,18.86,87,100,3.6,ES,1669254978
318,camargo,27.6667,-105.1667,18.65,31,100,2.61,MX,1669255040
319,myitkyina,25.3833,97.4,19.01,53,5,1.13,MM,1669255040
320,wageningen,51.9667,5.6667,8.3,90,100,4.63,NL,1669255041
321,nyzhnya krynka,48.1135,38.1606,2.65,71,100,2.24,UA,1669255042
322,yar-sale,66.8333,70.8333,-25.86,100,98,1.76,RU,1669255042
323,shimoda,34.6667,138.95,20.61,74,72,3.0,JP,1669255043
324,fos-sur-mer,43.4377,4.9446,10.82,87,0,3.6,FR,1669255044
325,phan thiet,10.9333,108.1,27.9,75,80,3.53,VN,1669255044
326,baoro,5.6667,15.9667,19.44,36,7,1.46,CF,1669255045
327,atar,20.5169,-13.0499,18.96,14,0,3.53,MR,1669255046
328,peniche,39.3558,-9.3811,16.83,94,100,4.99,PT,1669255046
329,morada nova,-5.1067,-38.3725,25.31,75,9,3.56,BR,1669255047
330,mayo,38.8876,-76.5119,9.16,65,0,0.0,US,1669255048
331,ilulissat,69.2167,-51.1,-15.44,81,13,2.19,GL,1669255048
332,hofn,64.2539,-15.2082,6.26,92,100,11.83,IS,1669255049
333,yining,29.0361,114.5636,17.99,67,67,0.64,CN,1669255049
334,komsomolskiy,40.4272,71.7189,3.4,81,97,3.09,UZ,1669255020
335,asau,46.4333,26.4,0.71,94,42,1.76,RO,1669255050
336,manicore,-5.8092,-61.3003,23.61,88,90,0.67,BR,1669255051
337,marzuq,14.4,46.4667,15.08,77,0,0.78,YE,1669255052
338,saint-raphael,19.4333,-72.2,21.27,95,33,1.28,HT,1669255052
339,neka,36.6508,53.299,13.36,72,98,2.25,IR,1669255053
340,narsaq,60.9167,-46.05,-1.83,67,93,5.27,GL,1669255053
341,elk city,35.412,-99.4043,11.12,93,100,5.66,US,1669255054
342,copiapo,-27.3667,-70.3333,13.83,54,1,0.43,CL,1669255055
343,dillon,34.4166,-79.3712,14.38,44,11,3.14,US,1669255055
344,sisimiut,66.9395,-53.6735,-7.77,85,18,5.16,GL,1669255056
345,kurchum,48.5722,83.6542,-20.94,93,30,1.85,KZ,1669255056
346,kaabong,3.4836,34.1492,17.88,73,38,1.73,UG,1669254955
347,marrakesh,31.6315,-8.0083,13.04,58,0,2.57,MA,1669255012
348,ulaanbaatar,47.9077,106.8832,-17.93,78,40,1.0,MN,1669254923
349,antofagasta,-23.65,-70.4,17.91,74,19,0.48,CL,1669255058
350,hilo,19.7297,-155.09,25.69,87,36,1.79,US,1669255059
351,belaya gora,68.5333,146.4167,-34.98,100,100,1.01,RU,1669255059
352,manzhouli,49.6,117.4333,-12.89,91,100,3.07,CN,1669255060
353,iralaya,15.0,-83.2333,25.41,87,18,3.14,HN,1669255060
354,ternate,0.8,127.4,28.79,72,98,0.49,ID,1669255061
355,broken hill,-31.95,141.4333,24.19,26,50,1.31,AU,1669254909
356,solano,38.2333,-121.9511,16.97,57,99,0.77,US,1669255062
357,kushiro,42.975,144.3747,6.53,100,75,3.6,JP,1669254811
358,itarema,-2.9248,-39.9167,25.93,75,35,6.75,BR,1669255063
359,acucena,-19.0731,-42.5464,22.29,98,100,0.5,BR,1669255064
360,novo aripuana,-5.1206,-60.3797,23.4,90,62,0.95,BR,1669255064
361,jojoima,7.8792,-10.7878,20.25,75,65,0.33,SL,1669255065
362,byron bay,-28.65,153.6167,27.75,56,100,4.05,AU,1669255065
363,aklavik,68.2191,-135.0107,-14.75,97,97,2.24,CA,1669255066
364,yerofey pavlovich,53.9667,121.9667,-14.68,89,100,1.02,RU,1669255067
365,ukiah,39.1502,-123.2078,15.47,66,89,0.89,US,1669255019
366,quthing,-30.4,27.7003,16.11,61,0,1.96,LS,1669255067
367,bull savanna,17.8868,-77.5902,24.38,84,41,3.52,JM,1669255068
368,nybro,56.7446,15.9071,4.45,97,100,1.32,SE,1669255069
369,north platte,41.1239,-100.7654,7.77,25,100,7.15,US,1669255069
370,shenkursk,62.1091,42.896,-12.49,94,6,2.58,RU,1669255070
371,karatau,43.1667,70.4667,7.12,75,100,1.77,KZ,1669255070
372,tuatapere,-46.1333,167.6833,11.55,73,70,7.19,NZ,1669255071
373,zyryanka,65.75,150.85,-27.33,93,100,5.44,RU,1669255072
374,grindavik,63.8424,-22.4338,5.26,70,0,12.86,IS,1669255073
375,gayeri,12.6497,0.4931,21.77,18,33,3.34,BF,1669255073
376,ensley,30.5188,-87.2728,14.56,88,12,2.25,US,1669255074
377,inirida,3.8653,-67.9239,22.79,98,100,0.95,CO,1669255074
378,namibe,-15.1961,12.1522,22.33,76,35,1.45,AO,1669255075
379,cayenne,4.9333,-52.3333,24.02,94,40,0.0,GF,1669255075
380,la concordia,13.1953,-86.1667,19.04,92,93,2.11,NI,1669255076
381,klyuchi,52.2667,79.1667,-18.1,92,45,2.3,RU,1669255077
382,chebarkul,54.9749,60.3633,-9.37,95,100,2.99,RU,1669255077
383,zeya,53.75,127.2667,-16.25,88,100,2.37,RU,1669255078
384,gat,31.61,34.7642,18.55,100,71,0.82,IL,1669255078
385,san lorenzo,-25.3333,-57.5333,19.52,82,0,1.54,PY,1669255079
386,adre,13.4667,22.2,19.28,32,10,4.66,TD,1669255080
387,sanmenxia,34.7747,111.1814,11.04,63,0,0.74,CN,1669255080
388,high rock,26.6208,-78.2833,23.01,80,7,3.83,BS,1669255081
389,middle island,40.8843,-72.9373,8.27,62,2,0.45,US,1669255081
390,nizwa,22.9333,57.5333,20.47,61,98,1.02,OM,1669255082
391,jackson,42.4165,-122.8345,7.66,67,45,0.45,US,1669255047
392,ahipara,-35.1667,173.1667,17.91,68,84,7.37,NZ,1669255084
393,mashhad,36.297,59.6062,3.08,60,0,0.0,IR,1669255084
394,tubuala,9.5167,-79.0333,25.35,84,63,2.45,PA,1669255085
395,mantua,45.1667,10.7833,4.58,80,1,1.6,IT,1669255086
396,coahuayana,18.7333,-103.6833,24.23,89,13,0.37,MX,1669255087
397,lasa,46.6166,10.7002,-1.65,92,28,3.16,IT,1669255088
398,poros,37.4994,23.4536,14.92,63,0,2.84,GR,1669255089
399,halifax,44.6453,-63.5724,1.0,62,41,11.32,CA,1669254893
400,bilma,18.6853,12.9164,17.01,23,1,5.24,NE,1669255090
401,rawson,-43.3002,-65.1023,22.48,35,93,14.21,AR,1669255090
402,flinders,-34.5833,150.8552,24.54,57,0,1.79,AU,1669255091
403,damaturu,11.747,11.9608,19.34,26,100,3.95,NG,1669255092
404,matiguas,12.8373,-85.4622,21.4,96,91,1.33,NI,1669255092
405,mangrol,21.1167,70.1167,21.65,43,0,3.53,IN,1669255093
406,seremban,2.7297,101.9381,28.73,71,89,2.15,MY,1669255094
407,nguru,12.8791,10.4526,19.25,20,6,4.25,NG,1669255094
408,brae,60.3964,-1.353,8.7,87,100,9.97,GB,1669255095
409,gouyave,12.1646,-61.7296,25.43,89,20,5.14,GD,1669255095
410,sola,-13.8833,167.55,32.37,66,34,0.0,VU,1669255096
411,kaeo,-35.1,173.7833,22.96,68,73,6.91,NZ,1669255097
412,fairbanks,64.8378,-147.7164,-12.02,83,100,0.0,US,1669255097
413,atasu,48.6814,71.6433,-7.77,91,99,3.14,KZ,1669255098
414,severo-kurilsk,50.6789,156.125,1.88,59,88,5.27,RU,1669254838
415,norman wells,65.282,-126.8329,-12.98,92,40,1.54,CA,1669255099
416,primo tapia,32.22,-116.9172,19.93,54,1,1.92,MX,1669255100
417,koutsouras,35.0339,25.9469,14.5,84,0,3.74,GR,1669255100
418,port hedland,-20.3167,118.5667,30.03,58,25,4.12,AU,1669255092
419,bayangol,50.6977,103.4656,-11.23,91,100,1.01,RU,1669255101
420,norashen,39.9996,44.5895,-0.26,56,0,0.6,AM,1669255102
421,port lincoln,-34.7333,135.8667,17.77,64,1,4.66,AU,1669255103
422,gizo,-8.103,156.8419,28.81,69,59,1.37,SB,1669255103
423,kamen-rybolov,44.7481,132.0403,-1.87,63,10,2.43,RU,1669255104
424,nantucket,41.2835,-70.0995,7.86,69,6,9.09,US,1669255104
425,gejiu,23.306,103.1635,13.5,77,71,1.19,CN,1669255105
426,santa maria,-29.6842,-53.8069,15.61,82,0,1.03,BR,1669255106
427,damietta,31.4165,31.8133,19.94,68,38,4.7,EG,1669255106
428,buin,-33.7333,-70.75,25.06,58,10,0.95,CL,1669254945
429,clervaux,50.0547,6.0314,6.97,90,100,7.28,LU,1669255107
430,lamesa,32.7376,-101.951,10.85,64,0,4.43,US,1669255108
431,pochutla,15.7432,-96.4661,24.9,85,95,1.57,MX,1669255109
432,kichmengskiy gorodok,59.9816,45.7854,-9.35,88,95,3.92,RU,1669255109
433,minot,48.2325,-101.2963,2.1,89,48,5.02,US,1669255110
434,sivas,39.7916,37.0019,4.94,83,67,3.23,TR,1669255110
435,bonthe,7.5264,-12.505,25.33,80,100,1.43,SL,1669255111
436,wexford,52.3342,-6.4575,8.4,76,12,10.12,IE,1669255112
437,benjamin constant,-4.3831,-70.0311,25.07,99,100,0.42,BR,1669255112
438,mogadishu,2.0371,45.3438,26.21,79,6,5.12,SO,1669254863
439,leningradskiy,69.3833,178.4167,-21.65,97,100,1.0,RU,1669255095
440,luis correia,-2.8792,-41.6669,26.26,76,43,7.1,BR,1669255114
441,neuquen,-38.9516,-68.0591,24.94,36,0,6.17,AR,1669255115
442,tomatlan,19.9333,-105.25,22.48,85,100,0.86,MX,1669255115
443,devonport,-41.1667,146.35,19.49,56,52,6.11,AU,1669255116
444,kruisfontein,-34.0033,24.7314,17.16,84,79,2.27,ZA,1669255116
445,belle fourche,44.6714,-103.8522,5.18,58,100,8.58,US,1669255117
446,helena,46.5927,-112.0361,-4.59,89,81,2.38,US,1669255118
447,dudinka,69.4058,86.1778,-40.44,100,50,1.83,RU,1669255119
448,praia da vitoria,38.7333,-27.0667,15.42,77,40,7.4,PT,1669255120
449,moranbah,-22.0016,148.0466,32.62,36,71,4.12,AU,1669255120
450,bulaevo,54.9056,70.4439,-15.24,91,100,3.02,KZ,1669255121
451,saint-georges,12.0564,-61.7485,25.82,89,20,5.14,GD,1669255063
452,tazmalt,36.3868,4.3989,16.3,72,63,1.66,DZ,1669255122
453,ganzhou,28.8184,115.4327,16.6,70,100,1.4,CN,1669255123
454,cap malheureux,-19.9842,57.6142,23.04,77,33,1.34,MU,1669255123
455,ollon,46.2952,6.9931,7.87,93,18,0.89,CH,1669255124
456,ullapool,57.8987,-5.1604,5.47,90,99,3.41,GB,1669255124
457,tainan,22.9908,120.2133,26.88,69,75,1.03,TW,1669255125
458,varhaug,58.6147,5.6457,8.83,84,100,14.57,NO,1669255126
459,lubango,-14.9172,13.4925,16.24,81,99,1.64,AO,1669255126
460,tonantins,-2.8731,-67.8022,22.29,96,98,0.31,BR,1669255127
461,zomin,39.9606,68.3958,11.88,28,100,1.7,UZ,1669255127
462,zhezkazgan,47.8043,67.7144,-0.01,93,100,6.0,KZ,1669255128
463,gossaigaon,26.4481,89.989,18.38,66,0,2.26,IN,1669255129
464,evensk,61.95,159.2333,-16.55,81,100,3.48,RU,1669255129
465,senneterre,48.3835,-77.2328,-8.36,93,86,1.99,CA,1669255130
466,broome,42.2506,-75.833,2.52,74,37,1.34,US,1669255017
467,cootamundra,-34.65,148.0333,21.64,49,0,4.61,AU,1669255131
468,kununurra,-15.7667,128.7333,23.99,94,40,2.57,AU,1669255131
469,faya,18.3851,42.4509,11.06,71,0,1.12,SA,1669255132
470,carutapera,-1.195,-46.02,25.76,85,28,3.42,BR,1669255132
471,anloga,5.7947,0.8973,27.03,78,62,2.98,GH,1669255133
472,mechetinskaya,46.7713,40.456,5.3,86,100,3.43,RU,1669255134
473,necochea,-38.5473,-58.7368,14.77,76,0,1.77,AR,1669254876
474,diapaga,12.0708,1.7889,22.02,17,100,3.02,BF,1669255134
475,camabatela,-8.1881,15.375,15.85,97,96,0.72,AO,1669255135
476,mardin,37.3131,40.7436,10.23,45,3,2.27,TR,1669255136
477,husavik,66.0449,-17.3389,4.11,98,100,4.06,IS,1669255136
478,kon tum,14.35,108.0,25.81,77,43,0.77,VN,1669255137
479,weligama,5.9667,80.4167,25.48,78,100,2.88,LK,1669255137
480,juye,35.3947,116.0883,14.14,61,0,5.3,CN,1669255138
481,waw,7.7029,27.9953,24.96,53,11,2.16,SS,1669255139
482,susehri,40.1644,38.0867,6.89,76,100,2.24,TR,1669255139
483,belmonte,-15.8631,-38.8828,23.54,88,95,2.49,BR,1669255140
484,marsabit,2.3284,37.9899,17.05,88,16,5.73,KE,1669255141
485,sigli,5.3848,95.9609,27.82,68,97,2.02,ID,1669255142
486,tucuman,-26.8241,-65.2226,21.0,64,0,1.03,AR,1669255142
487,yaan,7.3833,8.5667,21.84,27,3,0.84,NG,1669255143
488,jalu,29.0331,21.5482,14.39,66,1,4.02,LY,1669255144
489,eureka,40.8021,-124.1637,9.66,92,95,2.11,US,1669255138
490,jonkoping,57.7814,14.1562,4.66,100,100,4.12,SE,1669254880
491,mildura,-34.2,142.15,22.82,52,88,3.94,AU,1669255146
492,soledad,10.9184,-74.7646,26.07,94,20,2.06,CO,1669254964
493,khandyga,62.6667,135.6,-29.9,98,93,0.62,RU,1669255147
494,les cayes,18.2,-73.75,24.42,83,76,2.03,HT,1669255147
495,bo phloi,14.3236,99.5161,27.4,88,100,1.56,TH,1669255148
496,kusti,13.1629,32.6635,24.18,31,0,5.12,SD,1669255149
497,ler,8.3018,30.1418,23.98,65,5,0.49,SS,1669255149
498,parana,-31.732,-60.5238,24.73,67,0,3.85,AR,1669255150
499,rock sound,24.9,-76.2,27.1,77,91,3.78,BS,1669255151
500,airai,-8.9266,125.4092,23.39,62,64,0.61,TL,1669255151
501,newport news,36.9788,-76.428,9.99,52,1,2.49,US,1669255152
502,mlonggo,-6.5333,110.7,28.59,71,100,2.54,ID,1669255152
503,leshukonskoye,64.8989,45.7622,-19.63,100,51,0.5,RU,1669255153
504,hovd,48.0056,91.6419,-10.9,65,1,1.17,MN,1669255154
505,doha,25.2867,51.5333,20.99,64,0,1.54,QA,1669254979
506,mineros,-17.1167,-63.2333,25.72,47,100,0.77,BO,1669255155
507,takoradi,4.8845,-1.7554,25.96,83,93,3.2,GH,1669255156
508,richards bay,-28.783,32.0377,22.16,81,0,6.67,ZA,1669255157
509,perth,-31.9333,115.8333,22.23,55,75,6.17,AU,1669255085
510,roma,43.2128,-75.4557,2.04,93,66,1.61,US,1669255158
511,lompoc,34.6391,-120.4579,16.12,87,0,3.09,US,1669254864
512,newcastle,-32.9272,151.7765,27.21,57,20,6.69,AU,1669255159
513,fort madison,40.6298,-91.3151,11.38,66,100,2.57,US,1669255159
514,kibre mengist,5.8833,38.9833,12.42,71,54,1.17,ET,1669255160
515,bodhan,18.6667,77.9,19.91,54,69,1.58,IN,1669255161
516,kyra,49.5776,111.9753,-10.37,86,100,0.97,RU,1669255161
517,vila franca do campo,37.7167,-25.4333,17.23,81,100,4.41,PT,1669255163
518,general roca,-39.0333,-67.5833,25.9,41,0,0.89,AR,1669255163
519,havoysund,70.9963,24.6622,-2.87,67,4,4.03,NO,1669255164
520,lethbridge,49.7,-112.8186,1.06,69,0,7.2,CA,1669255015
521,kysyl-syr,63.8986,122.7617,-35.77,100,93,0.15,RU,1669255165
522,san ignacio,17.1561,-89.0714,25.08,88,75,1.54,BZ,1669255166
523,talnakh,69.4865,88.3972,-34.65,96,12,0.73,RU,1669255167
524,sarangarh,21.6,83.0833,17.42,52,49,0.84,IN,1669255167
525,moscow,55.7522,37.6156,-2.01,81,100,2.26,RU,1669254595
526,oswego,43.4501,-76.1497,2.42,93,76,1.65,US,1669255093
527,vao,-22.6667,167.4833,23.65,81,81,8.14,NC,1669255169
528,tigil,57.8,158.6667,-4.55,89,100,7.62,RU,1669255169
529,nemuro,43.3236,145.575,8.23,68,100,7.8,JP,1669255170
530,teruel,40.6667,-0.6667,4.6,90,64,3.04,ES,1669255170
531,quatre cocos,-20.2078,57.7625,24.06,80,44,4.37,MU,1669255171
532,ugoofaaru,5.6667,73.0,26.7,78,100,5.87,MV,1669255172
533,velikodvorskiy,55.25,40.6678,-3.24,94,100,2.51,RU,1669255173
534,ouegoa,-20.35,164.4333,29.39,65,29,0.88,NC,1669255173
535,boyuibe,-20.4167,-63.2833,22.29,51,100,1.09,BO,1669255174
536,aswan,24.0934,32.907,18.61,36,0,2.57,EG,1669255175
537,avera,33.194,-82.5271,13.73,62,18,2.84,US,1669255175
538,taltal,-25.4,-70.4833,17.45,83,32,0.45,CL,1669255176
539,nelson bay,-32.7167,152.15,23.03,58,1,4.92,AU,1669255176
540,okhotsk,59.3833,143.3,-17.89,79,100,8.16,RU,1669255177
541,ulkan,57.243,107.3223,-14.35,90,100,3.62,RU,1669255178
542,sao felix do xingu,-6.6447,-51.995,22.0,95,66,0.42,BR,1669255178
543,dongsheng,39.8161,109.9776,4.94,44,60,6.35,CN,1669255179
544,ozinki,51.1786,49.6769,1.13,96,100,5.54,RU,1669255179
545,leicester,52.6386,-1.1317,7.12,86,31,6.71,GB,1669255002
546,new bern,35.1085,-77.0441,12.81,69,0,2.28,US,1669254887
547,khovu-aksy,51.1333,93.6,-23.58,84,21,1.47,RU,1669255181
548,axim,4.8699,-2.2405,25.19,86,100,2.95,GH,1669255182
549,saposoa,-6.934,-76.7716,21.4,97,66,0.46,PE,1669255182
550,aksu,41.1231,80.2644,2.3,32,9,1.33,CN,1669255183
551,barguzin,53.6167,109.6167,-9.75,93,93,2.01,RU,1669255184
552,boende,-0.2167,20.8667,20.84,99,84,1.06,CD,1669255184
553,maningrida,-12.0667,134.2667,33.25,51,71,3.81,AU,1669255185
554,kanniyakumari,8.0833,77.5667,25.02,68,93,5.24,IN,1669255185
555,lake charles,30.2131,-93.2044,17.77,90,0,2.57,US,1669254908
556,aitape,-3.1374,142.3475,27.57,79,100,1.77,PG,1669255186
557,hay river,60.8156,-115.7999,-6.01,86,75,2.06,CA,1669255187
558,shakawe,-18.3667,21.85,22.28,62,100,1.18,BW,1669255188
559,rantauprapat,2.1,99.8333,28.33,67,53,0.39,ID,1669255188
560,mbigou,-1.9005,11.906,19.28,97,100,0.4,GA,1669255189
561,jaltenango,15.8719,-92.7247,20.29,96,87,0.59,MX,1669255189
562,soure,-0.7167,-48.5233,26.41,84,94,4.51,BR,1669255121
563,ca mau,9.1769,105.15,28.67,77,100,4.43,VN,1669255190
564,huambo,-12.7761,15.7392,15.24,91,100,0.88,AO,1669255191
565,yenagoa,4.9247,6.2642,24.3,90,49,1.42,NG,1669255191
566,muisne,0.6,-80.0333,23.03,83,100,3.77,EC,1669255086
567,cao bang,22.6667,106.25,21.36,95,100,0.9,VN,1669255010
568,hengyang,26.8881,112.615,16.97,75,100,1.61,CN,1669255193
569,garmsar,35.2182,52.3409,10.31,32,84,1.18,IR,1669255193
570,lakes entrance,-37.8811,147.981,21.2,61,15,5.39,AU,1669255194
571,ochamchira,42.7121,41.4721,14.33,44,99,1.87,GE,1669255195
572,acajutla,13.5928,-89.8275,26.22,73,55,1.79,SV,1669255195
573,la rioja,42.25,-2.5,1.88,81,100,2.5,ES,1669255022
574,margate,51.3813,1.3862,8.28,86,94,0.89,GB,1669255196
575,abalak,58.1286,68.5944,-25.23,99,6,1.5,RU,1669255197
576,mbalmayo,3.5167,11.5,22.18,95,45,1.31,CM,1669255197
577,madarounfa,13.3087,7.156,19.47,18,10,4.41,NE,1669255198
578,palana,59.1167,159.9667,-6.14,78,100,10.62,RU,1669255198
579,smithers,54.7804,-127.1743,3.18,93,100,5.14,CA,1669254915
580,apollonia,36.9716,24.7231,12.77,61,0,7.82,GR,1669255199
581,cockburn town,21.4612,-71.1419,27.98,74,40,5.14,TC,1669255200
